{ 
"type": "FeatureCollection", 
"name": "jeju_rest",
"crs": { "type": "name", "properties": { "name": "urn:ogc:def:crs:OGC:1.3:CRS84" } },
"features": [
{ "type": "Feature", "properties": { "Name": "오고정식당","address":"제주 제주시 성지로 57 1층 (일도일동)","link": "https://place.map.kakao.com/597458984", "layer": "제주 식당"},"geometry": { "type": "Point", "coordinates": [ 126.529287,33.511212,0.0 ] } },
{ "type": "Feature", "properties": { "Name": "저지리498맛나게드시게","address":"제주 제주시 한경면 중산간서로 3793 (한경면 저지리)","link": "https://place.map.kakao.com/163527018", "layer": "제주 식당"},"geometry": { "type": "Point", "coordinates": [ 126.255628,33.342434,0.0 ] } },
{ "type": "Feature", "properties": { "Name": "돈풍년","address":"제주 제주시 승천로 52 1층 (아라이동)","link": "https://place.map.kakao.com/13634547", "layer": "제주 식당"},"geometry": { "type": "Point", "coordinates": [ 126.541050,33.493779,0.0 ] } },
{ "type": "Feature", "properties": { "Name": "금자매식당","address":"제주 제주시 한경면 용고로 154 1층 (한경면 고산리)","link": "https://place.map.kakao.com/2074696121", "layer": "제주 식당"},"geometry": { "type": "Point", "coordinates": [ 126.176435,33.305846,0.0 ] } },
{ "type": "Feature", "properties": { "Name": "참스큐 도두점","address":"제주 제주시 도공로 10-1 1층 (도두일동)","link": "https://place.map.kakao.com/13084257", "layer": "제주 식당"},"geometry": { "type": "Point", "coordinates": [ 126.464828,33.505266,0.0 ] } },
{ "type": "Feature", "properties": { "Name": "별돈별 정원점","address":"제주 제주시 한경면 고산로8길 21-15 1층 (한경면 고산리)","link": "https://place.map.kakao.com/1445399366", "layer": "제주 식당"},"geometry": { "type": "Point", "coordinates": [ 126.180167,33.308662,0.0 ] } },
{ "type": "Feature", "properties": { "Name": "촌촌해녀촌","address":"제주 제주시 구좌읍 동복로 35 (구좌읍 동복리)","link": "https://place.map.kakao.com/25161006", "layer": "제주 식당"},"geometry": { "type": "Point", "coordinates": [ 126.710109,33.553705,0.0 ] } },
{ "type": "Feature", "properties": { "Name": "동광생오리집","address":"제주 제주시 태성로2길 32 1층 (일도이동)","link": "https://place.map.kakao.com/18609915", "layer": "제주 식당"},"geometry": { "type": "Point", "coordinates": [ 126.547630,33.500775,0.0 ] } },
{ "type": "Feature", "properties": { "Name": "한림칼국수","address":"제주 제주시 한림읍 한림해안로 141 1층 (한림읍 한림리)","link": "https://place.map.kakao.com/22893211", "layer": "제주 식당"},"geometry": { "type": "Point", "coordinates": [ 126.261506,33.415567,0.0 ] } },
{ "type": "Feature", "properties": { "Name": "손맛","address":"제주 제주시 명림로 8 (봉개동)","link": "https://place.map.kakao.com/19762658", "layer": "제주 식당"},"geometry": { "type": "Point", "coordinates": [ 126.603684,33.484918,0.0 ] } },
{ "type": "Feature", "properties": { "Name": "빵귿","address":"제주 제주시 구남동6길 45-1 1층 (이도2동)","link": "https://place.map.kakao.com/1383801809", "layer": "제주 식당"},"geometry": { "type": "Point", "coordinates": [ 126.535150,33.487086,0.0 ] } },
{ "type": "Feature", "properties": { "Name": "경복정","address":"제주 제주시 고마로9길 21 (일도이동)","link": "https://place.map.kakao.com/13285091", "layer": "제주 식당"},"geometry": { "type": "Point", "coordinates": [ 126.541262,33.510813,0.0 ] } },
{ "type": "Feature", "properties": { "Name": "블랙데이","address":"제주 제주시 만덕로 23-2 (건입동)","link": "https://place.map.kakao.com/1839700554", "layer": "제주 식당"},"geometry": { "type": "Point", "coordinates": [ 126.532146,33.514349,0.0 ] } },
{ "type": "Feature", "properties": { "Name": "원담","address":"제주 제주시 동광로1길 13 (이도일동)","link": "https://place.map.kakao.com/25406600", "layer": "제주 식당"},"geometry": { "type": "Point", "coordinates": [ 126.528785,33.502125,0.0 ] } },
{ "type": "Feature", "properties": { "Name": "저지오름반점","address":"제주 제주시 한경면 중산간서로 3649 (한경면 저지리)","link": "https://place.map.kakao.com/19914841", "layer": "제주 식당"},"geometry": { "type": "Point", "coordinates": [ 126.255278,33.330502,0.0 ] } },
{ "type": "Feature", "properties": { "Name": "산우정","address":"제주 제주시 은남4길 29 (연동)","link": "https://place.map.kakao.com/11800682", "layer": "제주 식당"},"geometry": { "type": "Point", "coordinates": [ 126.492607,33.486223,0.0 ] } },
{ "type": "Feature", "properties": { "Name": "제주돔베","address":"제주 제주시 연북로 840 (화북이동)","link": "https://place.map.kakao.com/1884555566", "layer": "제주 식당"},"geometry": { "type": "Point", "coordinates": [ 126.564136,33.501213,0.0 ] } },
{ "type": "Feature", "properties": { "Name": "논짓물","address":"제주 제주시 신대로12길 41 (연동)","link": "https://place.map.kakao.com/17869257", "layer": "제주 식당"},"geometry": { "type": "Point", "coordinates": [ 126.492226,33.488670,0.0 ] } },
{ "type": "Feature", "properties": { "Name": "채우다","address":"제주 제주시 중앙로7길 31 1층 (일도일동)","link": "https://place.map.kakao.com/1331469142", "layer": "제주 식당"},"geometry": { "type": "Point", "coordinates": [ 126.528014,33.514893,0.0 ] } },
{ "type": "Feature", "properties": { "Name": "할매추어탕","address":"제주 제주시 구남로 57 (이도이동)","link": "https://place.map.kakao.com/8148105", "layer": "제주 식당"},"geometry": { "type": "Point", "coordinates": [ 126.535668,33.491725,0.0 ] } },
{ "type": "Feature", "properties": { "Name": "통일가든","address":"제주 제주시 조천읍 조와로 14 (조천읍 조천리)","link": "https://place.map.kakao.com/9552212", "layer": "제주 식당"},"geometry": { "type": "Point", "coordinates": [ 126.635477,33.534214,0.0 ] } },
{ "type": "Feature", "properties": { "Name": "정우말가든","address":"제주 제주시 아연로 17 (연동)","link": "https://place.map.kakao.com/8515374", "layer": "제주 식당"},"geometry": { "type": "Point", "coordinates": [ 126.497513,33.480278,0.0 ] } },
{ "type": "Feature", "properties": { "Name": "흑마가든","address":"제주 제주시 연화로2길 20-1 1층 (연동)","link": "https://place.map.kakao.com/10964837", "layer": "제주 식당"},"geometry": { "type": "Point", "coordinates": [ 126.489332,33.477280,0.0 ] } },
{ "type": "Feature", "properties": { "Name": "시골길 이도점","address":"제주 제주시 오복2길 23 1층 (이도이동)","link": "https://place.map.kakao.com/9948926", "layer": "제주 식당"},"geometry": { "type": "Point", "coordinates": [ 126.536349,33.493975,0.0 ] } },
{ "type": "Feature", "properties": { "Name": "송림반점","address":"제주 제주시 관덕로 2-1 (삼도이동)","link": "https://place.map.kakao.com/20807210", "layer": "제주 식당"},"geometry": { "type": "Point", "coordinates": [ 126.519744,33.512419,0.0 ] } },
{ "type": "Feature", "properties": { "Name": "우도해광식당","address":"제주 제주시 우도면 하고수길 69 (우도면 연평리)","link": "https://place.map.kakao.com/27225960", "layer": "제주 식당"},"geometry": { "type": "Point", "coordinates": [ 126.956878,33.513512,0.0 ] } },
{ "type": "Feature", "properties": { "Name": "교래곶자왈손칼국수","address":"제주 제주시 조천읍 비자림로 636 1층 (조천읍 교래리)","link": "https://place.map.kakao.com/21929953", "layer": "제주 식당"},"geometry": { "type": "Point", "coordinates": [ 126.676112,33.434480,0.0 ] } },
{ "type": "Feature", "properties": { "Name": "애월리순메밀막국수","address":"제주 제주시 애월읍 애월해안로 11 (애월읍 애월리)","link": "https://place.map.kakao.com/327549209", "layer": "제주 식당"},"geometry": { "type": "Point", "coordinates": [ 126.316361,33.465635,0.0 ] } },
{ "type": "Feature", "properties": { "Name": "아리아식당","address":"제주 제주시 한경면 노을해안로 1174 마동 1층 (한경면 고산리)","link": "https://place.map.kakao.com/433422696", "layer": "제주 식당"},"geometry": { "type": "Point", "coordinates": [ 126.165736,33.308151,0.0 ] } },
{ "type": "Feature", "properties": { "Name": "전이야기","address":"제주특별자치도 제주시 우정로 44 (외도일동)","link": "https://place.map.kakao.com/1421346551", "layer": "제주 식당"},"geometry": { "type": "Point", "coordinates": [ 126.430664,33.488972,0.0 ] } },
{ "type": "Feature", "properties": { "Name": "영춘식당","address":"제주 제주시 평전길 12 1층 (삼도일동)","link": "https://place.map.kakao.com/24225685", "layer": "제주 식당"},"geometry": { "type": "Point", "coordinates": [ 126.519343,33.500910,0.0 ] } },
{ "type": "Feature", "properties": { "Name": "협재칼국수","address":"제주 제주시 한림읍 협재로 3 1층 (한림읍 협재리)","link": "https://place.map.kakao.com/713350813", "layer": "제주 식당"},"geometry": { "type": "Point", "coordinates": [ 126.244506,33.396809,0.0 ] } },
{ "type": "Feature", "properties": { "Name": "멘도롱돈까스","address":"제주 제주시 구좌읍 월정7길 58 (구좌읍 월정리)","link": "https://place.map.kakao.com/27132485", "layer": "제주 식당"},"geometry": { "type": "Point", "coordinates": [ 126.795863,33.555481,0.0 ] } },
{ "type": "Feature", "properties": { "Name": "꼬스뗀뇨","address":"제주 제주시 구좌읍 해맞이해안로 2080 (구좌읍 종달리)","link": "https://place.map.kakao.com/1937247194", "layer": "제주 식당"},"geometry": { "type": "Point", "coordinates": [ 126.905244,33.509866,0.0 ] } },
{ "type": "Feature", "properties": { "Name": "금호정육점","address":"제주 제주시 만덕로 24 (건입동)","link": "https://place.map.kakao.com/8710555", "layer": "제주 식당"},"geometry": { "type": "Point", "coordinates": [ 126.531831,33.514557,0.0 ] } },
{ "type": "Feature", "properties": { "Name": "촘고기공작소 촘닭갈비","address":"제주 제주시 동화로 76 (화북이동)","link": "https://place.map.kakao.com/1668772747", "layer": "제주 식당"},"geometry": { "type": "Point", "coordinates": [ 126.572745,33.513486,0.0 ] } },
{ "type": "Feature", "properties": { "Name": "제주밥상","address":"제주 제주시 사장3길 27 (연동)","link": "https://place.map.kakao.com/9440455", "layer": "제주 식당"},"geometry": { "type": "Point", "coordinates": [ 126.491904,33.482754,0.0 ] } },
{ "type": "Feature", "properties": { "Name": "뚱보아저씨","address":"제주 제주시 한경면 중산간서로 3651 (한경면 저지리)","link": "https://place.map.kakao.com/839698275", "layer": "제주 식당"},"geometry": { "type": "Point", "coordinates": [ 126.255358,33.330658,0.0 ] } },
{ "type": "Feature", "properties": { "Name": "산방식당 제주점","address":"제주 제주시 구남로8길 10-5 (이도이동)","link": "https://place.map.kakao.com/17358320", "layer": "제주 식당"},"geometry": { "type": "Point", "coordinates": [ 126.536008,33.490187,0.0 ] } },
{ "type": "Feature", "properties": { "Name": "제철별미횟집","address":"제주 제주시 원노형3길 28 1층 (노형동)","link": "https://place.map.kakao.com/1845749764", "layer": "제주 식당"},"geometry": { "type": "Point", "coordinates": [ 126.483066,33.486771,0.0 ] } },
{ "type": "Feature", "properties": { "Name": "돈지","address":"제주 제주시 동문로10길 2 1층 (일도1동)","link": "https://place.map.kakao.com/22537474", "layer": "제주 식당"},"geometry": { "type": "Point", "coordinates": [ 126.531134,33.512842,0.0 ] } },
{ "type": "Feature", "properties": { "Name": "성미가든","address":"제주 제주시 조천읍 미래로 604 (조천읍 교래리)","link": "https://place.map.kakao.com/10478618", "layer": "제주 식당"},"geometry": { "type": "Point", "coordinates": [ 126.677047,33.437476,0.0 ] } },
{ "type": "Feature", "properties": { "Name": "아일랜드본섬","address":"제주 제주시 신설로6길 1-1 (이도이동)","link": "https://place.map.kakao.com/605027316", "layer": "제주 식당"},"geometry": { "type": "Point", "coordinates": [ 126.542685,33.494041,0.0 ] } },
{ "type": "Feature", "properties": { "Name": "스테이지하우스","address":"제주 제주시 구좌읍 해맞이해안로 2361 (구좌읍 종달리)","link": "https://place.map.kakao.com/26417773", "layer": "제주 식당"},"geometry": { "type": "Point", "coordinates": [ 126.910710,33.490331,0.0 ] } },
{ "type": "Feature", "properties": { "Name": "금복식당","address":"제주 제주시 동문로 16 (일도일동)","link": "https://place.map.kakao.com/21461466", "layer": "제주 식당"},"geometry": { "type": "Point", "coordinates": [ 126.528314,33.512791,0.0 ] } },
{ "type": "Feature", "properties": { "Name": "담아래","address":"제주 제주시 수목원길 23 1층 101호 (연동)","link": "https://place.map.kakao.com/48393154", "layer": "제주 식당"},"geometry": { "type": "Point", "coordinates": [ 126.487313,33.469384,0.0 ] } },
{ "type": "Feature", "properties": { "Name": "한림공원","address":"제주 제주시 한림읍 한림로 300 (한림읍 협재리)","link": "https://place.map.kakao.com/10941032", "layer": "제주 식당"},"geometry": { "type": "Point", "coordinates": [ 126.240183,33.389191,0.0 ] } },
{ "type": "Feature", "properties": { "Name": "북촌에가면","address":"제주 제주시 조천읍 북촌5길 6 (조천읍 북촌리)","link": "https://place.map.kakao.com/2080549056", "layer": "제주 식당"},"geometry": { "type": "Point", "coordinates": [ 126.692586,33.548012,0.0 ] } },
{ "type": "Feature", "properties": { "Name": "신해바라기분식 본점","address":"제주 제주시 관덕로13길 13 (일도1동)","link": "https://place.map.kakao.com/13595461", "layer": "제주 식당"},"geometry": { "type": "Point", "coordinates": [ 126.525943,33.514214,0.0 ] } },
{ "type": "Feature", "properties": { "Name": "다담","address":"제주 제주시 서광로2길 11-18 (오라일동)","link": "https://place.map.kakao.com/13130451", "layer": "제주 식당"},"geometry": { "type": "Point", "coordinates": [ 126.513596,33.498644,0.0 ] } },
{ "type": "Feature", "properties": { "Name": "화진전복","address":"제주 제주시 무근성길 2 1층 (삼도2동)","link": "https://place.map.kakao.com/8687379", "layer": "제주 식당"},"geometry": { "type": "Point", "coordinates": [ 126.519107,33.517935,0.0 ] } },
{ "type": "Feature", "properties": { "Name": "종달미소","address":"제주 제주시 구좌읍 종달로 60-15 1층 (구좌읍 종달리)","link": "https://place.map.kakao.com/55544361", "layer": "제주 식당"},"geometry": { "type": "Point", "coordinates": [ 126.894834,33.492298,0.0 ] } },
{ "type": "Feature", "properties": { "Name": "대진 1호점","address":"제주 제주시 서부두길 16 (건입동)","link": "https://place.map.kakao.com/24123446", "layer": "제주 식당"},"geometry": { "type": "Point", "coordinates": [ 126.528382,33.517721,0.0 ] } },
{ "type": "Feature", "properties": { "Name": "동복 해녀해산물직판장","address":"제주 제주시 구좌읍 구좌해안로 35 (구좌읍 동복리)","link": "https://place.map.kakao.com/7843481", "layer": "제주 식당"},"geometry": { "type": "Point", "coordinates": [ 126.718772,33.556106,0.0 ] } },
{ "type": "Feature", "properties": { "Name": "태백산 제주본점","address":"제주 제주시 도공로 154-12 (이호이동)","link": "https://place.map.kakao.com/309907939", "layer": "제주 식당"},"geometry": { "type": "Point", "coordinates": [ 126.467248,33.494703,0.0 ] } },
{ "type": "Feature", "properties": { "Name": "혜선이네","address":"제주 제주시 고마로 32 1층 (일도2동)","link": "https://place.map.kakao.com/17270214", "layer": "제주 식당"},"geometry": { "type": "Point", "coordinates": [ 126.538479,33.511185,0.0 ] } },
{ "type": "Feature", "properties": { "Name": "주소명","address":"제주 제주시 애월읍 장전리","link": "https://place.map.kakao.com/RN86030118", "layer": "제주 식당"},"geometry": { "type": "Point", "coordinates": [ 126.387473,33.448624,0.0 ] } },
{ "type": "Feature", "properties": { "Name": "현무암닭강정","address":"제주 제주시 테우해안로 44-1 1층 (내도동)","link": "https://place.map.kakao.com/183168753", "layer": "제주 식당"},"geometry": { "type": "Point", "coordinates": [ 126.439792,33.495714,0.0 ] } },
{ "type": "Feature", "properties": { "Name": "전농로왕벚꽃거리","address":"제주 제주시 삼도일동 585-30","link": "https://place.map.kakao.com/295036758", "layer": "제주 식당"},"geometry": { "type": "Point", "coordinates": [ 126.515811,33.504416,0.0 ] } },
{ "type": "Feature", "properties": { "Name": "유진수산","address":"제주 제주시 임항로 37 제주시수협어시장 수협30호점 (건입동)","link": "https://place.map.kakao.com/11175668", "layer": "제주 식당"},"geometry": { "type": "Point", "coordinates": [ 126.528628,33.516795,0.0 ] } },
{ "type": "Feature", "properties": { "Name": "제주선채향","address":"제주 서귀포시 안덕면 사계남로84번길 6 (안덕면 사계리)","link": "https://place.map.kakao.com/1612962916", "layer": "제주 식당"},"geometry": { "type": "Point", "coordinates": [ 126.298982,33.226368,0.0 ] } },
{ "type": "Feature", "properties": { "Name": "제주소드래","address":"제주 제주시 가령로 1 (이도이동)","link": "https://place.map.kakao.com/12749808", "layer": "제주 식당"},"geometry": { "type": "Point", "coordinates": [ 126.536713,33.504052,0.0 ] } },
{ "type": "Feature", "properties": { "Name": "백리향","address":"제주 제주시 조천읍 신북로 244 (조천읍 조천리)","link": "https://place.map.kakao.com/23470769", "layer": "제주 식당"},"geometry": { "type": "Point", "coordinates": [ 126.638415,33.536982,0.0 ] } },
{ "type": "Feature", "properties": { "Name": "카페시소","address":"제주 제주시 조천읍 조천북1길 70 1층 (조천읍 조천리)","link": "https://place.map.kakao.com/406509155", "layer": "제주 식당"},"geometry": { "type": "Point", "coordinates": [ 126.634882,33.543452,0.0 ] } },
{ "type": "Feature", "properties": { "Name": "태선갈비 일도점","address":"제주 제주시 연삼로 545-1 (일도이동)","link": "https://place.map.kakao.com/9497665", "layer": "제주 식당"},"geometry": { "type": "Point", "coordinates": [ 126.546982,33.502738,0.0 ] } },
{ "type": "Feature", "properties": { "Name": "태선갈비","address":"제주 제주시 중앙로23길 2 (이도1동)","link": "https://place.map.kakao.com/11971375", "layer": "제주 식당"},"geometry": { "type": "Point", "coordinates": [ 126.525342,33.506829,0.0 ] } },
{ "type": "Feature", "properties": { "Name": "순수한둠비","address":"제주 제주시 서문로 37-11 1층 (용담일동)","link": "https://place.map.kakao.com/779594348", "layer": "제주 식당"},"geometry": { "type": "Point", "coordinates": [ 126.514392,33.511093,0.0 ] } },
{ "type": "Feature", "properties": { "Name": "별방진","address":"제주 제주시 구좌읍 하도리 3354","link": "https://place.map.kakao.com/10375099", "layer": "제주 식당"},"geometry": { "type": "Point", "coordinates": [ 126.882899,33.526772,0.0 ] } },
{ "type": "Feature", "properties": { "Name": "탑부평 흑돼지거리본점","address":"제주 제주시 관덕로15길 26 (건입동)","link": "https://place.map.kakao.com/10814831", "layer": "제주 식당"},"geometry": { "type": "Point", "coordinates": [ 126.526991,33.515498,0.0 ] } },
{ "type": "Feature", "properties": { "Name": "애월 고불락","address":"제주 제주시 애월읍 고내로7길 45-12 (애월읍 고내리)","link": "https://place.map.kakao.com/21196506", "layer": "제주 식당"},"geometry": { "type": "Point", "coordinates": [ 126.336619,33.466715,0.0 ] } },
{ "type": "Feature", "properties": { "Name": "해저","address":"제주 제주시 한림읍 한림해안로 582 (한림읍 귀덕리)","link": "https://place.map.kakao.com/1884550973", "layer": "제주 식당"},"geometry": { "type": "Point", "coordinates": [ 126.276516,33.440330,0.0 ] } },
{ "type": "Feature", "properties": { "Name": "제주도해녀세자매","address":"제주 제주시 한림읍 한림해안로 275 (한림읍 수원리)","link": "https://place.map.kakao.com/1164617159", "layer": "제주 식당"},"geometry": { "type": "Point", "coordinates": [ 126.263965,33.425863,0.0 ] } },
{ "type": "Feature", "properties": { "Name": "면사무소","address":"제주 제주시 애월읍 애월해안로 494 1층 (애월읍 신엄리)","link": "https://place.map.kakao.com/1362842838", "layer": "제주 식당"},"geometry": { "type": "Point", "coordinates": [ 126.356898,33.478402,0.0 ] } },
{ "type": "Feature", "properties": { "Name": "참치말자","address":"제주 제주시 조천읍 함덕12길 23 (조천읍 함덕리)","link": "https://place.map.kakao.com/1048721783", "layer": "제주 식당"},"geometry": { "type": "Point", "coordinates": [ 126.664552,33.540124,0.0 ] } },
{ "type": "Feature", "properties": { "Name": "순두부엔짬뽕","address":"제주 제주시 통물길 30 (외도일동)","link": "https://place.map.kakao.com/27347361", "layer": "제주 식당"},"geometry": { "type": "Point", "coordinates": [ 126.434745,33.489478,0.0 ] } },
{ "type": "Feature", "properties": { "Name": "도두해녀의집","address":"제주 제주시 도두항길 16 (도두일동)","link": "https://place.map.kakao.com/8894680", "layer": "제주 식당"},"geometry": { "type": "Point", "coordinates": [ 126.466626,33.506176,0.0 ] } },
{ "type": "Feature", "properties": { "Name": "앙뚜아네트 용담점","address":"제주 제주시 서해안로 671 (용담삼동)","link": "https://place.map.kakao.com/915825806", "layer": "제주 식당"},"geometry": { "type": "Point", "coordinates": [ 126.508835,33.516185,0.0 ] } },
{ "type": "Feature", "properties": { "Name": "동복뚝배기","address":"제주 제주시 구좌읍 동복로 30-2 1층 (구좌읍 동복리)","link": "https://place.map.kakao.com/1936912017", "layer": "제주 식당"},"geometry": { "type": "Point", "coordinates": [ 126.709310,33.553181,0.0 ] } },
{ "type": "Feature", "properties": { "Name": "신미국밥","address":"제주 제주시 구좌읍 김녕로 108 (구좌읍 김녕리)","link": "https://place.map.kakao.com/17604744", "layer": "제주 식당"},"geometry": { "type": "Point", "coordinates": [ 126.749579,33.554354,0.0 ] } },
{ "type": "Feature", "properties": { "Name": "소낭","address":"제주 제주시 신광로4길 1 1층 (연동)","link": "https://place.map.kakao.com/538473072", "layer": "제주 식당"},"geometry": { "type": "Point", "coordinates": [ 126.489575,33.488760,0.0 ] } },
{ "type": "Feature", "properties": { "Name": "해월정 서귀포점","address":"제주 서귀포시 대정읍 형제해안로 262 (대정읍 상모리)","link": "https://place.map.kakao.com/1123715527", "layer": "제주 식당"},"geometry": { "type": "Point", "coordinates": [ 126.291771,33.211195,0.0 ] } },
{ "type": "Feature", "properties": { "Name": "우정횟집","address":"제주 제주시 서부두길 16 1층 (건입동)","link": "https://place.map.kakao.com/17701774", "layer": "제주 식당"},"geometry": { "type": "Point", "coordinates": [ 126.528284,33.517624,0.0 ] } },
{ "type": "Feature", "properties": { "Name": "기아 제주서비스센터","address":"제주 제주시 선반로6길 12 1층 (화북일동)","link": "https://place.map.kakao.com/730467257", "layer": "제주 식당"},"geometry": { "type": "Point", "coordinates": [ 126.561644,33.513804,0.0 ] } },
{ "type": "Feature", "properties": { "Name": "잘도식당","address":"제주 제주시 중앙로15길 16 1층 (이도일동)","link": "https://place.map.kakao.com/134762777", "layer": "제주 식당"},"geometry": { "type": "Point", "coordinates": [ 126.525450,33.510721,0.0 ] } },
{ "type": "Feature", "properties": { "Name": "금하순대","address":"제주 제주시 한림읍 일주서로 5820 (한림읍 귀덕리)","link": "https://place.map.kakao.com/8793141", "layer": "제주 식당"},"geometry": { "type": "Point", "coordinates": [ 126.288408,33.441070,0.0 ] } },
{ "type": "Feature", "properties": { "Name": "율군짬뽕","address":"제주 제주시 천수로 82 혜성대유아파트 105동 101호 (일도이동)","link": "https://place.map.kakao.com/902838220", "layer": "제주 식당"},"geometry": { "type": "Point", "coordinates": [ 126.544608,33.505740,0.0 ] } },
{ "type": "Feature", "properties": { "Name": "가람돌솥밥","address":"제주 서귀포시 중문관광로 332 (대포동)","link": "https://place.map.kakao.com/10954053", "layer": "제주 식당"},"geometry": { "type": "Point", "coordinates": [ 126.431285,33.249649,0.0 ] } },
{ "type": "Feature", "properties": { "Name": "오드랑베이커리","address":"제주 제주시 조천읍 조함해안로 552-3 1층 (조천읍 함덕리)","link": "https://place.map.kakao.com/1578746387", "layer": "제주 식당"},"geometry": { "type": "Point", "coordinates": [ 126.671581,33.542134,0.0 ] } },
{ "type": "Feature", "properties": { "Name": "선이네밥집","address":"제주 제주시 조천읍 신북로 262 1층 (조천읍 조천리)","link": "https://place.map.kakao.com/1718455209", "layer": "제주 식당"},"geometry": { "type": "Point", "coordinates": [ 126.639960,33.538140,0.0 ] } },
{ "type": "Feature", "properties": { "Name": "정성듬뿍제주국","address":"제주 제주시 무근성7길 16 1층 (삼도이동)","link": "https://place.map.kakao.com/13325715", "layer": "제주 식당"},"geometry": { "type": "Point", "coordinates": [ 126.520201,33.514026,0.0 ] } },
{ "type": "Feature", "properties": { "Name": "덕인당보리빵","address":"제주 제주시 조천읍 신북로 36 (조천읍 신촌리)","link": "https://place.map.kakao.com/15751877", "layer": "제주 식당"},"geometry": { "type": "Point", "coordinates": [ 126.618600,33.532223,0.0 ] } },
{ "type": "Feature", "properties": { "Name": "양씨네제주전복칼국수 본점","address":"제주 제주시 관덕로13길 10-1 (일도일동)","link": "https://place.map.kakao.com/1559101042", "layer": "제주 식당"},"geometry": { "type": "Point", "coordinates": [ 126.526095,33.513886,0.0 ] } },
{ "type": "Feature", "properties": { "Name": "하나로마트 제주점","address":"제주 제주시 남광로 206 (건입동)","link": "https://place.map.kakao.com/705124624", "layer": "제주 식당"},"geometry": { "type": "Point", "coordinates": [ 126.552893,33.503582,0.0 ] } },
{ "type": "Feature", "properties": { "Name": "제주사랑농장","address":"제주 서귀포시 안덕면 사계로114번길 54-64 102호 (안덕면 사계리)","link": "https://place.map.kakao.com/1533023719", "layer": "제주 식당"},"geometry": { "type": "Point", "coordinates": [ 126.306726,33.237999,0.0 ] } },
{ "type": "Feature", "properties": { "Name": "제주운정이네","address":"제주 서귀포시 중산간서로 726 (중문동)","link": "https://place.map.kakao.com/1766209113", "layer": "제주 식당"},"geometry": { "type": "Point", "coordinates": [ 126.437746,33.263545,0.0 ] } },
{ "type": "Feature", "properties": { "Name": "회심","address":"제주 제주시 아봉로 200 1층 (영평동)","link": "https://place.map.kakao.com/1173477940", "layer": "제주 식당"},"geometry": { "type": "Point", "coordinates": [ 126.564457,33.478421,0.0 ] } },
{ "type": "Feature", "properties": { "Name": "뚱딴지","address":"제주 제주시 애월읍 부룡수길 17 (애월읍 신엄리)","link": "https://place.map.kakao.com/16573450", "layer": "제주 식당"},"geometry": { "type": "Point", "coordinates": [ 126.354818,33.474579,0.0 ] } }
]
}
