{ 
"type": "FeatureCollection", 
"name": "jeju_wishlist",
"crs": { "type": "name", "properties": { "name": "urn:ogc:def:crs:OGC:1.3:CRS84" } },
"features": [
{ "type": "Feature", "properties": { "Name": "동백부엌","address":"제주 제주시 서해안로 150 1층 (도두일동)","link": "https://place.map.kakao.com/971601279", "layer": "제주 가볼곳"},"geometry": { "type": "Point", "coordinates": [ 126.465427,33.503037,0.0 ] } },
{ "type": "Feature", "properties": { "Name": "꿈낭밥집","address":"제주 제주시 애월읍 유수암평화5길 33-3 (애월읍 유수암리)","link": "https://place.map.kakao.com/1192415660", "layer": "제주 가볼곳"},"geometry": { "type": "Point", "coordinates": [ 126.405323,33.423964,0.0 ] } },
{ "type": "Feature", "properties": { "Name": "다린","address":"제주 서귀포시 법환로 11 (법환동)","link": "https://place.map.kakao.com/1228219754", "layer": "제주 가볼곳"},"geometry": { "type": "Point", "coordinates": [ 126.513847,33.236529,0.0 ] } },
{ "type": "Feature", "properties": { "Name": "금자매식당","address":"제주 제주시 한경면 용고로 154 1층 (한경면 고산리)","link": "https://place.map.kakao.com/2074696121", "layer": "제주 가볼곳"},"geometry": { "type": "Point", "coordinates": [ 126.176435,33.305846,0.0 ] } },
{ "type": "Feature", "properties": { "Name": "제주황칠곰탕","address":"제주 서귀포시 남원읍 남조로 260 (남원읍 의귀리)","link": "https://place.map.kakao.com/1202567804", "layer": "제주 가볼곳"},"geometry": { "type": "Point", "coordinates": [ 126.719400,33.302415,0.0 ] } },
{ "type": "Feature", "properties": { "Name": "성산일출봉 아시횟집","address":"제주 서귀포시 성산읍 성산등용로 19 1층 (성산읍 성산리)","link": "https://place.map.kakao.com/519185350", "layer": "제주 가볼곳"},"geometry": { "type": "Point", "coordinates": [ 126.932366,33.465287,0.0 ] } },
{ "type": "Feature", "properties": { "Name": "제주곰집","address":"제주 서귀포시 이어도로 733 (강정동)","link": "https://place.map.kakao.com/20631993", "layer": "제주 가볼곳"},"geometry": { "type": "Point", "coordinates": [ 126.493552,33.235781,0.0 ] } },
{ "type": "Feature", "properties": { "Name": "하여금","address":"제주 제주시 원노형4길 11 1층 (노형동)","link": "https://place.map.kakao.com/1615892100", "layer": "제주 가볼곳"},"geometry": { "type": "Point", "coordinates": [ 126.482452,33.485120,0.0 ] } },
{ "type": "Feature", "properties": { "Name": "맛있수다","address":"제주 서귀포시 예래로 50 (상예동)","link": "https://place.map.kakao.com/1561577023", "layer": "제주 가볼곳"},"geometry": { "type": "Point", "coordinates": [ 126.400921,33.255969,0.0 ] } },
{ "type": "Feature", "properties": { "Name": "오레노카츠 제주화순점","address":"제주 서귀포시 안덕면 화순로 119 (안덕면 화순리)","link": "https://place.map.kakao.com/1534979119", "layer": "제주 가볼곳"},"geometry": { "type": "Point", "coordinates": [ 126.333538,33.246250,0.0 ] } },
{ "type": "Feature", "properties": { "Name": "오레노카츠 제주협재점","address":"제주 제주시 한림읍 한림로 392 1층 (한림읍 협재리)","link": "https://place.map.kakao.com/326224866", "layer": "제주 가볼곳"},"geometry": { "type": "Point", "coordinates": [ 126.244358,33.397061,0.0 ] } },
{ "type": "Feature", "properties": { "Name": "치딩","address":"제주 제주시 도두항서길 41 블루파크시티 102호 (도두일동)","link": "https://place.map.kakao.com/1643233391", "layer": "제주 가볼곳"},"geometry": { "type": "Point", "coordinates": [ 126.464143,33.506014,0.0 ] } },
{ "type": "Feature", "properties": { "Name": "양혜정의 만능장","address":"제주 제주시 도공로 25-1 천마에코피아오피스텔 상가103호 (도두일동)","link": "https://place.map.kakao.com/1499553038", "layer": "제주 가볼곳"},"geometry": { "type": "Point", "coordinates": [ 126.465767,33.504488,0.0 ] } },
{ "type": "Feature", "properties": { "Name": "예원이네은갈치조림","address":"제주 서귀포시 안덕면 일주서로 1524 (안덕면 감산리)","link": "https://place.map.kakao.com/1872479171", "layer": "제주 가볼곳"},"geometry": { "type": "Point", "coordinates": [ 126.352981,33.258416,0.0 ] } },
{ "type": "Feature", "properties": { "Name": "숙자네숟가락젓가락 세화본점","address":"제주 제주시 구좌읍 세평항로 45-2 1층 (구좌읍 평대리)","link": "https://place.map.kakao.com/556924957", "layer": "제주 가볼곳"},"geometry": { "type": "Point", "coordinates": [ 126.854870,33.527428,0.0 ] } },
{ "type": "Feature", "properties": { "Name": "기흥어물","address":"제주 서귀포시 중정로61번길 6 (서귀동)","link": "https://place.map.kakao.com/8821699", "layer": "제주 가볼곳"},"geometry": { "type": "Point", "coordinates": [ 126.563133,33.248419,0.0 ] } },
{ "type": "Feature", "properties": { "Name": "한라산소갈비찜","address":"제주 제주시 애월읍 애월해안로 852 1층 (애월읍 하귀2리)","link": "https://place.map.kakao.com/1900230819", "layer": "제주 가볼곳"},"geometry": { "type": "Point", "coordinates": [ 126.388917,33.488698,0.0 ] } },
{ "type": "Feature", "properties": { "Name": "서민당","address":"제주 제주시 연신로 24 (이도이동)","link": "https://place.map.kakao.com/775244665", "layer": "제주 가볼곳"},"geometry": { "type": "Point", "coordinates": [ 126.544928,33.498767,0.0 ] } },
{ "type": "Feature", "properties": { "Name": "연정식당","address":"제주특별자치도 제주시 신광로10길 29 (연동)","link": "https://place.map.kakao.com/9251493", "layer": "제주 가볼곳"},"geometry": { "type": "Point", "coordinates": [ 126.486746,33.483768,0.0 ] } },
{ "type": "Feature", "properties": { "Name": "밀크홀","address":"제주특별자치도 제주시 한경면 판조로 428 (한경면)","link": "https://place.map.kakao.com/987964787", "layer": "제주 가볼곳"},"geometry": { "type": "Point", "coordinates": [ 126.226519,33.335881,0.0 ] } },
{ "type": "Feature", "properties": { "Name": "나무식탁","address":"제주 서귀포시 대정읍 도원로 214 1층 (대정읍 신도리)","link": "https://place.map.kakao.com/1908728172", "layer": "제주 가볼곳"},"geometry": { "type": "Point", "coordinates": [ 126.191500,33.278067,0.0 ] } },
{ "type": "Feature", "properties": { "Name": "광명식당","address":"제주특별자치도 제주시 동문로4길 9 (일도1동)","link": "https://place.map.kakao.com/19054447", "layer": "제주 가볼곳"},"geometry": { "type": "Point", "coordinates": [ 126.528046,33.512220,0.0 ] } },
{ "type": "Feature", "properties": { "Name": "한라네김밥","address":"제주특별자치도 서귀포시 일주동로 8697 (서귀동)","link": "https://place.map.kakao.com/779254179", "layer": "제주 가볼곳"},"geometry": { "type": "Point", "coordinates": [ 126.559296,33.252690,0.0 ] } },
{ "type": "Feature", "properties": { "Name": "명랑스낵","address":"제주특별자치도 제주시 한림읍 한림로 585 1층 (한림읍)","link": "https://place.map.kakao.com/27357866", "layer": "제주 가볼곳"},"geometry": { "type": "Point", "coordinates": [ 126.258817,33.409171,0.0 ] } },
{ "type": "Feature", "properties": { "Name": "태연종합정육식당","address":"제주특별자치도 제주시 서사로 187 (오라일동)","link": "https://place.map.kakao.com/25665392", "layer": "제주 가볼곳"},"geometry": { "type": "Point", "coordinates": [ 126.519979,33.495679,0.0 ] } },
{ "type": "Feature", "properties": { "Name": "봉성식당","address":"제주특별자치도 제주시 애월읍 봉성로 66 (애월읍)","link": "https://place.map.kakao.com/15783258", "layer": "제주 가볼곳"},"geometry": { "type": "Point", "coordinates": [ 126.312626,33.418681,0.0 ] } },
{ "type": "Feature", "properties": { "Name": "페를로","address":"제주특별자치도 서귀포시 안덕면 덕수회관로74번길 33 1층 (안덕면)","link": "https://place.map.kakao.com/334369411", "layer": "제주 가볼곳"},"geometry": { "type": "Point", "coordinates": [ 126.306136,33.256732,0.0 ] } },
{ "type": "Feature", "properties": { "Name": "만선식당","address":"제주특별자치도 서귀포시 대정읍 하모항구로 44 (대정읍)","link": "https://place.map.kakao.com/16260200", "layer": "제주 가볼곳"},"geometry": { "type": "Point", "coordinates": [ 126.249811,33.217863,0.0 ] } },
{ "type": "Feature", "properties": { "Name": "브라보비치","address":"제주특별자치도 서귀포시 성산읍 해맞이해안로 2614 1,2층 (성산읍)","link": "https://place.map.kakao.com/896735066", "layer": "제주 가볼곳"},"geometry": { "type": "Point", "coordinates": [ 126.909131,33.477520,0.0 ] } },
{ "type": "Feature", "properties": { "Name": "로뎀가든","address":"제주특별자치도 제주시 우도면 우도해안길 264 (우도면)","link": "https://place.map.kakao.com/12355116", "layer": "제주 가볼곳"},"geometry": { "type": "Point", "coordinates": [ 126.942698,33.503661,0.0 ] } },
{ "type": "Feature", "properties": { "Name": "곰막식당","address":"제주특별자치도 제주시 구좌읍 구좌해안로 64 (구좌읍)","link": "https://place.map.kakao.com/18421685", "layer": "제주 가볼곳"},"geometry": { "type": "Point", "coordinates": [ 126.720510,33.556870,0.0 ] } },
{ "type": "Feature", "properties": { "Name": "교래흑돼지 본점","address":"제주특별자치도 제주시 조천읍 교래4길 73 (조천읍)","link": "https://place.map.kakao.com/26463851", "layer": "제주 가볼곳"},"geometry": { "type": "Point", "coordinates": [ 126.675060,33.423727,0.0 ] } },
{ "type": "Feature", "properties": { "Name": "목화식당휴게소","address":"제주특별자치도 서귀포시 성산읍 해맞이해안로 2526 (성산읍)","link": "https://place.map.kakao.com/23970758", "layer": "제주 가볼곳"},"geometry": { "type": "Point", "coordinates": [ 126.901685,33.481820,0.0 ] } },
{ "type": "Feature", "properties": { "Name": "말젯문","address":"제주특별자치도 제주시 구좌읍 계룡길 31 (구좌읍)","link": "https://place.map.kakao.com/988891010", "layer": "제주 가볼곳"},"geometry": { "type": "Point", "coordinates": [ 126.835231,33.538420,0.0 ] } },
{ "type": "Feature", "properties": { "Name": "털보스협재밀","address":"제주특별자치도 제주시 한림읍 협재1길 27-6 2층 (한림읍)","link": "https://place.map.kakao.com/785689251", "layer": "제주 가볼곳"},"geometry": { "type": "Point", "coordinates": [ 126.242932,33.397838,0.0 ] } },
{ "type": "Feature", "properties": { "Name": "온평바다한그릇","address":"제주특별자치도 서귀포시 성산읍 환해장성로 467 (성산읍)","link": "https://place.map.kakao.com/1894668359", "layer": "제주 가볼곳"},"geometry": { "type": "Point", "coordinates": [ 126.905064,33.398726,0.0 ] } },
{ "type": "Feature", "properties": { "Name": "아름이네분식","address":"제주특별자치도 서귀포시 동문로 69 (중앙동)","link": "https://place.map.kakao.com/9254744", "layer": "제주 가볼곳"},"geometry": { "type": "Point", "coordinates": [ 126.567512,33.248986,0.0 ] } },
{ "type": "Feature", "properties": { "Name": "무거버거","address":"제주특별자치도 제주시 조천읍 조함해안로 356 (조천읍)","link": "https://place.map.kakao.com/1356679233", "layer": "제주 가볼곳"},"geometry": { "type": "Point", "coordinates": [ 126.655063,33.548984,0.0 ] } },
{ "type": "Feature", "properties": { "Name": "온오프","address":"제주특별자치도 제주시 우도면 우도해안길 876 1층 (우도면)","link": "https://place.map.kakao.com/1630713791", "layer": "제주 가볼곳"},"geometry": { "type": "Point", "coordinates": [ 126.961347,33.512908,0.0 ] } },
{ "type": "Feature", "properties": { "Name": "일미도","address":"제주특별자치도 제주시 구좌읍 면수길 52-1 1층 (구좌읍)","link": "https://place.map.kakao.com/27208637", "layer": "제주 가볼곳"},"geometry": { "type": "Point", "coordinates": [ 126.865505,33.525005,0.0 ] } },
{ "type": "Feature", "properties": { "Name": "제주순풍 신제주본점","address":"제주특별자치도 제주시 진군남4길 7-8 1층 (노형동)","link": "https://place.map.kakao.com/1958580481", "layer": "제주 가볼곳"},"geometry": { "type": "Point", "coordinates": [ 126.481005,33.475063,0.0 ] } },
{ "type": "Feature", "properties": { "Name": "안녕협재씨 제주협재점","address":"제주특별자치도 제주시 한림읍 금능길 12 1층 (한림읍)","link": "https://place.map.kakao.com/1614966348", "layer": "제주 가볼곳"},"geometry": { "type": "Point", "coordinates": [ 126.224979,33.386569,0.0 ] } },
{ "type": "Feature", "properties": { "Name": "함덕촐래밥상","address":"제주특별자치도 제주시 조천읍 함대로 57 1층 (조천읍)","link": "https://place.map.kakao.com/1960435494", "layer": "제주 가볼곳"},"geometry": { "type": "Point", "coordinates": [ 126.658039,33.539198,0.0 ] } },
{ "type": "Feature", "properties": { "Name": "후프바베큐","address":"제주특별자치도 제주시 애월읍 애월북서길 69 1층 (애월읍)","link": "https://place.map.kakao.com/1897901688", "layer": "제주 가볼곳"},"geometry": { "type": "Point", "coordinates": [ 126.310617,33.464395,0.0 ] } },
{ "type": "Feature", "properties": { "Name": "로맨틱새우","address":"제주특별자치도 제주시 애월읍 곽지1길 12-12 (애월읍)","link": "https://place.map.kakao.com/1261877281", "layer": "제주 가볼곳"},"geometry": { "type": "Point", "coordinates": [ 126.305304,33.448183,0.0 ] } },
{ "type": "Feature", "properties": { "Name": "노라바","address":"제주특별자치도 제주시 애월읍 구엄길 100 (애월읍)","link": "https://place.map.kakao.com/26352466", "layer": "제주 가볼곳"},"geometry": { "type": "Point", "coordinates": [ 126.376305,33.482792,0.0 ] } },
{ "type": "Feature", "properties": { "Name": "올래국수 본점","address":"제주특별자치도 제주시 귀아랑길 24 1층 (연동)","link": "https://place.map.kakao.com/1387964178", "layer": "제주 가볼곳"},"geometry": { "type": "Point", "coordinates": [ 126.497267,33.491529,0.0 ] } },
{ "type": "Feature", "properties": { "Name": "스시애월","address":"제주특별자치도 제주시 애월읍 장전로 57 (애월읍)","link": "https://place.map.kakao.com/993438455", "layer": "제주 가볼곳"},"geometry": { "type": "Point", "coordinates": [ 126.384273,33.452196,0.0 ] } },
{ "type": "Feature", "properties": { "Name": "우동카덴","address":"제주특별자치도 제주시 조천읍 교래3길 23 (조천읍)","link": "https://place.map.kakao.com/1492579639", "layer": "제주 가볼곳"},"geometry": { "type": "Point", "coordinates": [ 126.679294,33.435837,0.0 ] } },
{ "type": "Feature", "properties": { "Name": "제주등대아구찜","address":"제주특별자치도 제주시 한림읍 한림해안로 145-2 (한림읍)","link": "https://place.map.kakao.com/10371893", "layer": "제주 가볼곳"},"geometry": { "type": "Point", "coordinates": [ 126.261912,33.415934,0.0 ] } },
{ "type": "Feature", "properties": { "Name": "거멍국수","address":"제주특별자치도 서귀포시 안덕면 사계로114번길 53-14 1층 (안덕면)","link": "https://place.map.kakao.com/26908614", "layer": "제주 가볼곳"},"geometry": { "type": "Point", "coordinates": [ 126.304410,33.244377,0.0 ] } },
{ "type": "Feature", "properties": { "Name": "소금바치순이네","address":"제주특별자치도 제주시 구좌읍 해맞이해안로 2196 (구좌읍)","link": "https://place.map.kakao.com/26915572", "layer": "제주 가볼곳"},"geometry": { "type": "Point", "coordinates": [ 126.912633,33.503654,0.0 ] } },
{ "type": "Feature", "properties": { "Name": "버드나무집","address":"제주특별자치도 제주시 조천읍 신북로 540 (조천읍)","link": "https://place.map.kakao.com/7885885", "layer": "제주 가볼곳"},"geometry": { "type": "Point", "coordinates": [ 126.667394,33.541297,0.0 ] } },
{ "type": "Feature", "properties": { "Name": "막둥이해녀복순이네","address":"제주특별자치도 서귀포시 성산읍 서성일로 1129 (성산읍)","link": "https://place.map.kakao.com/26846302", "layer": "제주 가볼곳"},"geometry": { "type": "Point", "coordinates": [ 126.899141,33.445342,0.0 ] } },
{ "type": "Feature", "properties": { "Name": "맛나식당","address":"제주특별자치도 서귀포시 성산읍 동류암로 41 (성산읍)","link": "https://place.map.kakao.com/8970084", "layer": "제주 가볼곳"},"geometry": { "type": "Point", "coordinates": [ 126.916079,33.448601,0.0 ] } },
{ "type": "Feature", "properties": { "Name": "이춘옥의원조고등어쌈밥","address":"제주특별자치도 제주시 애월읍 일주서로 7213 1층 (애월읍)","link": "https://place.map.kakao.com/24780480", "layer": "제주 가볼곳"},"geometry": { "type": "Point", "coordinates": [ 126.418699,33.488996,0.0 ] } },
{ "type": "Feature", "properties": { "Name": "녹근로33","address":"제주특별자치도 제주시 애월읍 녹근로 33 1층 (애월읍)","link": "https://place.map.kakao.com/1658660649", "layer": "제주 가볼곳"},"geometry": { "type": "Point", "coordinates": [ 126.314335,33.415730,0.0 ] } },
{ "type": "Feature", "properties": { "Name": "도토리키친 본점","address":"제주특별자치도 제주시 북성로 59 1층 (삼도이동)","link": "https://place.map.kakao.com/158548436", "layer": "제주 가볼곳"},"geometry": { "type": "Point", "coordinates": [ 126.518604,33.515387,0.0 ] } },
{ "type": "Feature", "properties": { "Name": "처가집연탄구이","address":"제주특별자치도 서귀포시 하신상로 12 (하효동)","link": "https://place.map.kakao.com/8094132", "layer": "제주 가볼곳"},"geometry": { "type": "Point", "coordinates": [ 126.617792,33.261871,0.0 ] } },
{ "type": "Feature", "properties": { "Name": "광평도새기촌 제주본점","address":"제주특별자치도 제주시 애월읍 구엄동3길 64 (애월읍)","link": "https://place.map.kakao.com/2127773861", "layer": "제주 가볼곳"},"geometry": { "type": "Point", "coordinates": [ 126.380860,33.481434,0.0 ] } },
{ "type": "Feature", "properties": { "Name": "옥만이네","address":"제주특별자치도 제주시 한림읍 한림해안로 160 1층 (한림읍)","link": "https://place.map.kakao.com/285307335", "layer": "제주 가볼곳"},"geometry": { "type": "Point", "coordinates": [ 126.263335,33.416480,0.0 ] } },
{ "type": "Feature", "properties": { "Name": "용이식당","address":"제주특별자치도 서귀포시 중앙로79번길 9 (서귀동)","link": "https://place.map.kakao.com/8526214", "layer": "제주 가볼곳"},"geometry": { "type": "Point", "coordinates": [ 126.560480,33.251082,0.0 ] } },
{ "type": "Feature", "properties": { "Name": "깡촌흑돼지 함덕본점","address":"제주특별자치도 제주시 조천읍 함덕14길 2 (조천읍)","link": "https://place.map.kakao.com/27525363", "layer": "제주 가볼곳"},"geometry": { "type": "Point", "coordinates": [ 126.667135,33.541274,0.0 ] } },
{ "type": "Feature", "properties": { "Name": "신의한모","address":"제주특별자치도 제주시 애월읍 하귀14길 11-1 (애월읍)","link": "https://place.map.kakao.com/27107805", "layer": "제주 가볼곳"},"geometry": { "type": "Point", "coordinates": [ 126.408006,33.485386,0.0 ] } },
{ "type": "Feature", "properties": { "Name": "충민정","address":"제주특별자치도 제주시 남성로 26-1 (용담일동)","link": "https://place.map.kakao.com/1728065244", "layer": "제주 가볼곳"},"geometry": { "type": "Point", "coordinates": [ 126.513144,33.502519,0.0 ] } },
{ "type": "Feature", "properties": { "Name": "신설오름","address":"제주특별자치도 제주시 고마로17길 2 (일도이동)","link": "https://place.map.kakao.com/7972099", "layer": "제주 가볼곳"},"geometry": { "type": "Point", "coordinates": [ 126.541561,33.505419,0.0 ] } },
{ "type": "Feature", "properties": { "Name": "독개물항","address":"제주특별자치도 제주시 한림읍 한림로 478 (한림읍)","link": "https://place.map.kakao.com/12284690", "layer": "제주 가볼곳"},"geometry": { "type": "Point", "coordinates": [ 126.251613,33.401890,0.0 ] } },
{ "type": "Feature", "properties": { "Name": "자매국수","address":"제주특별자치도 제주시 항골남길 46 (이호일동)","link": "https://place.map.kakao.com/21455793", "layer": "제주 가볼곳"},"geometry": { "type": "Point", "coordinates": [ 126.459144,33.498577,0.0 ] } },
{ "type": "Feature", "properties": { "Name": "사굴식당","address":"제주특별자치도 제주시 구좌읍 만장굴길 34 (구좌읍)","link": "https://place.map.kakao.com/2013390748", "layer": "제주 가볼곳"},"geometry": { "type": "Point", "coordinates": [ 126.774830,33.544099,0.0 ] } },
{ "type": "Feature", "properties": { "Name": "고집돌우럭 제주공항점","address":"제주특별자치도 제주시 임항로 30 (건입동)","link": "https://place.map.kakao.com/232056222", "layer": "제주 가볼곳"},"geometry": { "type": "Point", "coordinates": [ 126.528059,33.516256,0.0 ] } },
{ "type": "Feature", "properties": { "Name": "난드르바당","address":"제주특별자치도 서귀포시 하예하동로16번길 11-1 (하예동)","link": "https://place.map.kakao.com/26883584", "layer": "제주 가볼곳"},"geometry": { "type": "Point", "coordinates": [ 126.371005,33.234616,0.0 ] } },
{ "type": "Feature", "properties": { "Name": "제주판타스틱버거","address":"제주특별자치도 서귀포시 표선면 토산중앙로15번길 6 (표선면)","link": "https://place.map.kakao.com/251708218", "layer": "제주 가볼곳"},"geometry": { "type": "Point", "coordinates": [ 126.778989,33.308479,0.0 ] } },
{ "type": "Feature", "properties": { "Name": "당케올레국수","address":"제주특별자치도 서귀포시 표선면 민속해안로 584 (표선면)","link": "https://place.map.kakao.com/25589899", "layer": "제주 가볼곳"},"geometry": { "type": "Point", "coordinates": [ 126.843336,33.325293,0.0 ] } },
{ "type": "Feature", "properties": { "Name": "번네식당","address":"제주특별자치도 서귀포시 안덕면 산방로 16 (안덕면)","link": "https://place.map.kakao.com/26884184", "layer": "제주 가볼곳"},"geometry": { "type": "Point", "coordinates": [ 126.329705,33.245713,0.0 ] } },
{ "type": "Feature", "properties": { "Name": "한라산아래첫마을","address":"제주특별자치도 서귀포시 안덕면 광평로 41 (안덕면)","link": "https://place.map.kakao.com/253784516", "layer": "제주 가볼곳"},"geometry": { "type": "Point", "coordinates": [ 126.381244,33.329585,0.0 ] } },
{ "type": "Feature", "properties": { "Name": "모슬포에서","address":"제주특별자치도 서귀포시 대정읍 영서중로13번길 10 1층 104호 (대정읍)","link": "https://place.map.kakao.com/1703850146", "layer": "제주 가볼곳"},"geometry": { "type": "Point", "coordinates": [ 126.254916,33.221954,0.0 ] } },
{ "type": "Feature", "properties": { "Name": "오는정김밥","address":"제주특별자치도 서귀포시 동문동로 2 (서귀동)","link": "https://place.map.kakao.com/8453998", "layer": "제주 가볼곳"},"geometry": { "type": "Point", "coordinates": [ 126.567621,33.249596,0.0 ] } },
{ "type": "Feature", "properties": { "Name": "연돈","address":"제주특별자치도 서귀포시 색달로 10 2층 (색달동)","link": "https://place.map.kakao.com/1890778114", "layer": "제주 가볼곳"},"geometry": { "type": "Point", "coordinates": [ 126.406109,33.258851,0.0 ] } },
{ "type": "Feature", "properties": { "Name": "뽈살집 제주본점","address":"제주특별자치도 서귀포시 중정로91번길 41 1층 (서귀동)","link": "https://place.map.kakao.com/11733078", "layer": "제주 가볼곳"},"geometry": { "type": "Point", "coordinates": [ 126.562846,33.250827,0.0 ] } },
{ "type": "Feature", "properties": { "Name": "명진전복","address":"제주특별자치도 제주시 구좌읍 해맞이해안로 1282 (구좌읍)","link": "https://place.map.kakao.com/20031551", "layer": "제주 가볼곳"},"geometry": { "type": "Point", "coordinates": [ 126.850185,33.532471,0.0 ] } },
{ "type": "Feature", "properties": { "Name": "넉둥베기","address":"제주특별자치도 제주시 서문로 9-1 1층 (용담일동)","link": "https://place.map.kakao.com/455216502", "layer": "제주 가볼곳"},"geometry": { "type": "Point", "coordinates": [ 126.512617,33.509845,0.0 ] } },
{ "type": "Feature", "properties": { "Name": "다가미","address":"제주특별자치도 제주시 도남로 111 다솜빌라 1층 (도남동)","link": "https://place.map.kakao.com/11417273", "layer": "제주 가볼곳"},"geometry": { "type": "Point", "coordinates": [ 126.528664,33.490426,0.0 ] } },
{ "type": "Feature", "properties": { "Name": "순옥이네 명가 본점","address":"제주특별자치도 제주시 도공로 8 (도두일동)","link": "https://place.map.kakao.com/1006711661", "layer": "제주 가볼곳"},"geometry": { "type": "Point", "coordinates": [ 126.464982,33.505516,0.0 ] } },
{ "type": "Feature", "properties": { "Name": "일통이반","address":"제주특별자치도 제주시 중앙로2길 25 1층 (삼도이동)","link": "https://place.map.kakao.com/1146457759", "layer": "제주 가볼곳"},"geometry": { "type": "Point", "coordinates": [ 126.522082,33.517070,0.0 ] } },
{ "type": "Feature", "properties": { "Name": "솔지식당","address":"제주특별자치도 제주시 월랑로 88 (노형동)","link": "https://place.map.kakao.com/10550164", "layer": "제주 가볼곳"},"geometry": { "type": "Point", "coordinates": [ 126.472578,33.492328,0.0 ] } },
{ "type": "Feature", "properties": { "Name": "슬슬슬로우","address":"제주특별자치도 제주시 구좌읍 덕행로 207 1층 (구좌읍)","link": "https://place.map.kakao.com/27465479", "layer": "제주 가볼곳"},"geometry": { "type": "Point", "coordinates": [ 126.793037,33.530387,0.0 ] } },
{ "type": "Feature", "properties": { "Name": "숙성도 노형점","address":"제주특별자치도 제주시 원노형로 41 1층 (노형동)","link": "https://place.map.kakao.com/316010726", "layer": "제주 가볼곳"},"geometry": { "type": "Point", "coordinates": [ 126.485021,33.485034,0.0 ] } },
{ "type": "Feature", "properties": { "Name": "문쏘","address":"제주특별자치도 제주시 한림읍 한림상로 15-5 (한림읍)","link": "https://place.map.kakao.com/444905118", "layer": "제주 가볼곳"},"geometry": { "type": "Point", "coordinates": [ 126.256710,33.405686,0.0 ] } },
{ "type": "Feature", "properties": { "Name": "시골집","address":"제주특별자치도 제주시 일주서로 7531 (이호일동)","link": "https://place.map.kakao.com/2020941487", "layer": "제주 가볼곳"},"geometry": { "type": "Point", "coordinates": [ 126.450487,33.495265,0.0 ] } },
{ "type": "Feature", "properties": { "Name": "신해바라기분식 한라대점","address":"제주특별자치도 제주시 정원로 47 (노형동)","link": "https://place.map.kakao.com/1443560399", "layer": "제주 가볼곳"},"geometry": { "type": "Point", "coordinates": [ 126.477800,33.477780,0.0 ] } }
]
}
