{ 
"type": "FeatureCollection", 
"name": "seogwipo_rest",
"crs": { "type": "name", "properties": { "name": "urn:ogc:def:crs:OGC:1.3:CRS84" } },
"features": [
{ "type": "Feature", "properties": { "Name": "착한마녀족발","address":"제주 서귀포시 남원읍 태위로 684 (남원읍 남원리)","link": "https://place.map.kakao.com/2072009485", "layer": "서귀포 식당"},"geometry": { "type": "Point", "coordinates": [ 126.719629,33.279143,0.0 ] } },
{ "type": "Feature", "properties": { "Name": "가시식당","address":"제주 서귀포시 표선면 가시로565번길 22 (표선면 가시리)","link": "https://place.map.kakao.com/8636832", "layer": "서귀포 식당"},"geometry": { "type": "Point", "coordinates": [ 126.771438,33.353060,0.0 ] } },
{ "type": "Feature", "properties": { "Name": "솥뚜껑흑돼지","address":"제주 서귀포시 516로 574-23 (상효동)","link": "https://place.map.kakao.com/194717786", "layer": "서귀포 식당"},"geometry": { "type": "Point", "coordinates": [ 126.600750,33.298394,0.0 ] } },
{ "type": "Feature", "properties": { "Name": "제주 서귀돈","address":"제주 서귀포시 홍중로27번길 6 (서홍동)","link": "https://place.map.kakao.com/1192961910", "layer": "서귀포 식당"},"geometry": { "type": "Point", "coordinates": [ 126.557503,33.254948,0.0 ] } },
{ "type": "Feature", "properties": { "Name": "산방식당","address":"제주 서귀포시 대정읍 하모이삼로 62 (대정읍 하모리)","link": "https://place.map.kakao.com/10437289", "layer": "서귀포 식당"},"geometry": { "type": "Point", "coordinates": [ 126.254213,33.223461,0.0 ] } },
{ "type": "Feature", "properties": { "Name": "제주돌하르방밀면","address":"제주 서귀포시 중문관광로 331 (중문동)","link": "https://place.map.kakao.com/8515035", "layer": "서귀포 식당"},"geometry": { "type": "Point", "coordinates": [ 126.430580,33.249833,0.0 ] } },
{ "type": "Feature", "properties": { "Name": "천짓골식당","address":"제주 서귀포시 중앙로41번길 4 (서귀동)","link": "https://place.map.kakao.com/12501703", "layer": "서귀포 식당"},"geometry": { "type": "Point", "coordinates": [ 126.561301,33.248239,0.0 ] } },
{ "type": "Feature", "properties": { "Name": "정육도 제주본점","address":"제주 서귀포시 남원읍 남태해안로 259 다동 1층 (남원읍 태흥리)","link": "https://place.map.kakao.com/1937373790", "layer": "서귀포 식당"},"geometry": { "type": "Point", "coordinates": [ 126.731419,33.280695,0.0 ] } },
{ "type": "Feature", "properties": { "Name": "옛날팥죽","address":"제주 서귀포시 표선면 성읍민속로 130 (표선면 성읍리)","link": "https://place.map.kakao.com/12653693", "layer": "서귀포 식당"},"geometry": { "type": "Point", "coordinates": [ 126.798851,33.388491,0.0 ] } },
{ "type": "Feature", "properties": { "Name": "삼원정 본점","address":"제주 서귀포시 색달중앙로 44 1층 (색달동)","link": "https://place.map.kakao.com/9812307", "layer": "서귀포 식당"},"geometry": { "type": "Point", "coordinates": [ 126.413918,33.259328,0.0 ] } },
{ "type": "Feature", "properties": { "Name": "범일분식","address":"제주 서귀포시 남원읍 태위로 658 (남원읍 남원리)","link": "https://place.map.kakao.com/17682261", "layer": "서귀포 식당"},"geometry": { "type": "Point", "coordinates": [ 126.716922,33.278452,0.0 ] } },
{ "type": "Feature", "properties": { "Name": "몰질식육식당","address":"제주 서귀포시 이어도로 598 (강정동)","link": "https://place.map.kakao.com/10333833", "layer": "서귀포 식당"},"geometry": { "type": "Point", "coordinates": [ 126.480263,33.235365,0.0 ] } },
{ "type": "Feature", "properties": { "Name": "남경미락","address":"제주 서귀포시 안덕면 사계남로 190-7 (안덕면 사계리)","link": "https://place.map.kakao.com/21350388", "layer": "서귀포 식당"},"geometry": { "type": "Point", "coordinates": [ 126.308946,33.230215,0.0 ] } },
{ "type": "Feature", "properties": { "Name": "주소명","address":"제주 서귀포시 남원읍 남태해안로 259","link": "https://place.map.kakao.com/N53683711", "layer": "서귀포 식당"},"geometry": { "type": "Point", "coordinates": [ 126.730949,33.280117,0.0 ] } },
{ "type": "Feature", "properties": { "Name": "백한철꽈배기식빵","address":"제주 서귀포시 남원읍 남한로21번길 56 (남원읍 남원리)","link": "https://place.map.kakao.com/1685614536", "layer": "서귀포 식당"},"geometry": { "type": "Point", "coordinates": [ 126.711416,33.281371,0.0 ] } },
{ "type": "Feature", "properties": { "Name": "카페라레온다","address":"제주 서귀포시 대정읍 노을해안로 720 2층 (대정읍 신도리)","link": "https://place.map.kakao.com/254196339", "layer": "서귀포 식당"},"geometry": { "type": "Point", "coordinates": [ 126.171325,33.276243,0.0 ] } },
{ "type": "Feature", "properties": { "Name": "미영이네","address":"제주 서귀포시 대정읍 하모항구로 42 (대정읍 하모리)","link": "https://place.map.kakao.com/9006988", "layer": "서귀포 식당"},"geometry": { "type": "Point", "coordinates": [ 126.249829,33.217733,0.0 ] } },
{ "type": "Feature", "properties": { "Name": "당포로나인돈카츠","address":"제주 서귀포시 표선면 표선당포로 9 1층 (표선면 표선리)","link": "https://place.map.kakao.com/969055653", "layer": "서귀포 식당"},"geometry": { "type": "Point", "coordinates": [ 126.843567,33.325759,0.0 ] } },
{ "type": "Feature", "properties": { "Name": "화순한가네식당","address":"제주 서귀포시 안덕면 화순해안로 109 (안덕면 화순리)","link": "https://place.map.kakao.com/623072470", "layer": "서귀포 식당"},"geometry": { "type": "Point", "coordinates": [ 126.336578,33.239219,0.0 ] } },
{ "type": "Feature", "properties": { "Name": "중문수두리보말칼국수","address":"제주특별자치도 서귀포시 천제연로 192 1층 (중문동)","link": "https://place.map.kakao.com/1148098112", "layer": "서귀포 식당"},"geometry": { "type": "Point", "coordinates": [ 126.425002,33.251568,0.0 ] } },
{ "type": "Feature", "properties": { "Name": "봉순이네흑돼지","address":"제주특별자치도 서귀포시 대정읍 영어도시로 64 1층 (대정읍)","link": "https://place.map.kakao.com/26922347", "layer": "서귀포 식당"},"geometry": { "type": "Point", "coordinates": [ 126.279568,33.277765,0.0 ] } },
{ "type": "Feature", "properties": { "Name": "해왓","address":"제주특별자치도 서귀포시 성산읍 신고로 30-1 (성산읍)","link": "https://place.map.kakao.com/382375401", "layer": "서귀포 식당"},"geometry": { "type": "Point", "coordinates": [ 126.917190,33.438493,0.0 ] } },
{ "type": "Feature", "properties": { "Name": "제주어물전","address":"제주특별자치도 서귀포시 성산읍 신고로 42 1층 (성산읍)","link": "https://place.map.kakao.com/285293706", "layer": "서귀포 식당"},"geometry": { "type": "Point", "coordinates": [ 126.917253,33.439582,0.0 ] } },
{ "type": "Feature", "properties": { "Name": "성산덕이네","address":"제주특별자치도 서귀포시 성산읍 온평애향로 69-1 . (성산읍)","link": "https://place.map.kakao.com/1902643597", "layer": "서귀포 식당"},"geometry": { "type": "Point", "coordinates": [ 126.904132,33.405607,0.0 ] } },
{ "type": "Feature", "properties": { "Name": "조이(JOYi)","address":"제주 서귀포시 남원읍 일주동로 8034 JOYi (남원읍 하례리)","link": "https://place.map.kakao.com/464726837", "layer": "서귀포 식당"},"geometry": { "type": "Point", "coordinates": [ 126.627743,33.263830,0.0 ] } },
{ "type": "Feature", "properties": { "Name": "공천포식당","address":"제주특별자치도 서귀포시 남원읍 공천포로 89 (남원읍)","link": "https://place.map.kakao.com/8204729", "layer": "서귀포 식당"},"geometry": { "type": "Point", "coordinates": [ 126.642586,33.266388,0.0 ] } },
{ "type": "Feature", "properties": { "Name": "칼맛","address":"제주특별자치도 서귀포시 신동로 69 지하1층 (서호동)","link": "https://place.map.kakao.com/806965597", "layer": "서귀포 식당"},"geometry": { "type": "Point", "coordinates": [ 126.513287,33.254668,0.0 ] } },
{ "type": "Feature", "properties": { "Name": "제주어향원","address":"제주특별자치도 서귀포시 남원읍 남태해안로 155 (남원읍)","link": "https://place.map.kakao.com/673236051", "layer": "서귀포 식당"},"geometry": { "type": "Point", "coordinates": [ 126.721518,33.277853,0.0 ] } },
{ "type": "Feature", "properties": { "Name": "또와국밥","address":"제주특별자치도 서귀포시 남원읍 남조로 26 1층 (남원읍)","link": "https://place.map.kakao.com/1064657786", "layer": "서귀포 식당"},"geometry": { "type": "Point", "coordinates": [ 126.720818,33.282027,0.0 ] } },
{ "type": "Feature", "properties": { "Name": "기억나는집","address":"제주특별자치도 서귀포시 중앙로 6 1층 (정방동)","link": "https://place.map.kakao.com/8238096", "layer": "서귀포 식당"},"geometry": { "type": "Point", "coordinates": [ 126.562188,33.245079,0.0 ] } },
{ "type": "Feature", "properties": { "Name": "소낭집","address":"제주특별자치도 서귀포시 막숙포로37번길 12 1층 (법환동)","link": "https://place.map.kakao.com/610865659", "layer": "서귀포 식당"},"geometry": { "type": "Point", "coordinates": [ 126.516443,33.238158,0.0 ] } }
]
}
