{ 
"type": "FeatureCollection", 
"name": "seogwipo_cafe",
"crs": { "type": "name", "properties": { "name": "urn:ogc:def:crs:OGC:1.3:CRS84" } },
"features": [
{ "type": "Feature", "properties": { "Name": "와토커피","address":"제주 서귀포시 대정읍 동일하모로 238 (대정읍 상모리)","link": "https://place.map.kakao.com/1028238972", "layer": "서귀포 카페"},"geometry": { "type": "Point", "coordinates": [ 126.256539,33.225462,0.0 ] } },
{ "type": "Feature", "properties": { "Name": "쉼한모금","address":"제주 서귀포시 산록남로 1246 (색달동)","link": "https://place.map.kakao.com/608739003", "layer": "서귀포 카페"},"geometry": { "type": "Point", "coordinates": [ 126.421482,33.293841,0.0 ] } },
{ "type": "Feature", "properties": { "Name": "무릉외갓집","address":"제주 서귀포시 대정읍 중산간서로2881번길 35-8 무릉외갓집 복합문화농장 (대정읍 무릉리)","link": "https://place.map.kakao.com/20807014", "layer": "서귀포 카페"},"geometry": { "type": "Point", "coordinates": [ 126.236694,33.273206,0.0 ] } },
{ "type": "Feature", "properties": { "Name": "수애기베이커리카페","address":"제주 서귀포시 대정읍 동일하모로98번길 48-59 1층 (대정읍 동일리)","link": "https://place.map.kakao.com/336756812", "layer": "서귀포 카페"},"geometry": { "type": "Point", "coordinates": [ 126.244178,33.222207,0.0 ] } },
{ "type": "Feature", "properties": { "Name": "원앤온리","address":"제주 서귀포시 안덕면 산방로 141 원앤온리 (안덕면 사계리)","link": "https://place.map.kakao.com/217787831", "layer": "서귀포 카페"},"geometry": { "type": "Point", "coordinates": [ 126.319192,33.239222,0.0 ] } },
{ "type": "Feature", "properties": { "Name": "아뜰리에안","address":"제주특별자치도 서귀포시 막숙포로 166 (법환동)","link": "https://place.map.kakao.com/1250970494", "layer": "서귀포 카페"},"geometry": { "type": "Point", "coordinates": [ 126.506013,33.231510,0.0 ] } },
{ "type": "Feature", "properties": { "Name": "얼리블랙 라이딩 라운지 카페 펍","address":"제주 서귀포시 말질로 322 (강정동)","link": "https://place.map.kakao.com/1444983228", "layer": "서귀포 카페"},"geometry": { "type": "Point", "coordinates": [ 126.471311,33.226690,0.0 ] } },
{ "type": "Feature", "properties": { "Name": "서프아트","address":"제주 서귀포시 중문로81번길 5 1층 (중문동)","link": "https://place.map.kakao.com/1969290303", "layer": "서귀포 카페"},"geometry": { "type": "Point", "coordinates": [ 126.426300,33.258390,0.0 ] } },
{ "type": "Feature", "properties": { "Name": "멍우주","address":"제주 서귀포시 안덕면 난드르로 49-75 (안덕면 창천리)","link": "https://place.map.kakao.com/838365119", "layer": "서귀포 카페"},"geometry": { "type": "Point", "coordinates": [ 126.367234,33.232616,0.0 ] } },
{ "type": "Feature", "properties": { "Name": "제주소담","address":"제주 서귀포시 막숙포로 150 2층 (법환동)","link": "https://place.map.kakao.com/2030116210", "layer": "서귀포 카페"},"geometry": { "type": "Point", "coordinates": [ 126.507429,33.231437,0.0 ] } },
{ "type": "Feature", "properties": { "Name": "JW메리어트제주 더플라잉호그","address":"제주 서귀포시 태평로 152 (호근동)","link": "https://place.map.kakao.com/272409136", "layer": "서귀포 카페"},"geometry": { "type": "Point", "coordinates": [ 126.538706,33.242661,0.0 ] } },
{ "type": "Feature", "properties": { "Name": "60빈스","address":"제주 서귀포시 태평로120번길 29-2 (호근동)","link": "https://place.map.kakao.com/21511066", "layer": "서귀포 카페"},"geometry": { "type": "Point", "coordinates": [ 126.536665,33.241521,0.0 ] } },
{ "type": "Feature", "properties": { "Name": "벙커하우스","address":"제주 서귀포시 막숙포로41번길 66 1층 (법환동)","link": "https://place.map.kakao.com/670044535", "layer": "서귀포 카페"},"geometry": { "type": "Point", "coordinates": [ 126.519224,33.240463,0.0 ] } },
{ "type": "Feature", "properties": { "Name": "러디스","address":"제주 서귀포시 월드컵로 202 (강정동)","link": "https://place.map.kakao.com/341830714", "layer": "서귀포 카페"},"geometry": { "type": "Point", "coordinates": [ 126.505629,33.231808,0.0 ] } },
{ "type": "Feature", "properties": { "Name": "쇠소깍빵명장","address":"제주 서귀포시 쇠소깍로 122 (하효동)","link": "https://place.map.kakao.com/75702988", "layer": "서귀포 카페"},"geometry": { "type": "Point", "coordinates": [ 126.622326,33.252695,0.0 ] } },
{ "type": "Feature", "properties": { "Name": "허니문하우스","address":"제주 서귀포시 칠십리로 228-13 (토평동)","link": "https://place.map.kakao.com/775734317", "layer": "서귀포 카페"},"geometry": { "type": "Point", "coordinates": [ 126.578713,33.244155,0.0 ] } },
{ "type": "Feature", "properties": { "Name": "섶섬지기","address":"제주 서귀포시 보목로64번길 79 (보목동)","link": "https://place.map.kakao.com/24627972", "layer": "서귀포 카페"},"geometry": { "type": "Point", "coordinates": [ 126.595789,33.237013,0.0 ] } },
{ "type": "Feature", "properties": { "Name": "게우지코지인갤러리 커피하우스","address":"제주 서귀포시 보목포로 179 (하효동)","link": "https://place.map.kakao.com/1013835521", "layer": "서귀포 카페"},"geometry": { "type": "Point", "coordinates": [ 126.618575,33.243721,0.0 ] } },
{ "type": "Feature", "properties": { "Name": "주소명","address":"올레귀족","link": "https://place.map.kakao.com/J154089183", "layer": "서귀포 카페"},"geometry": { "type": "Point", "coordinates": [ 126.518811,33.246946,0.0 ] } },
{ "type": "Feature", "properties": { "Name": "테라로사 서귀포점","address":"제주 서귀포시 칠십리로658번길 27-16 (하효동)","link": "https://place.map.kakao.com/25161792", "layer": "서귀포 카페"},"geometry": { "type": "Point", "coordinates": [ 126.618764,33.249471,0.0 ] } },
{ "type": "Feature", "properties": { "Name": "카페아오오","address":"제주 서귀포시 성산읍 환해장성로 75 1,2층 (성산읍 신산리)","link": "https://place.map.kakao.com/1441787320", "layer": "서귀포 카페"},"geometry": { "type": "Point", "coordinates": [ 126.879959,33.379096,0.0 ] } },
{ "type": "Feature", "properties": { "Name": "파더스가든","address":"제주 서귀포시 안덕면 병악로 44-33 (안덕면 상창리)","link": "https://place.map.kakao.com/303901411", "layer": "서귀포 카페"},"geometry": { "type": "Point", "coordinates": [ 126.365751,33.279944,0.0 ] } },
{ "type": "Feature", "properties": { "Name": "상효원수목원","address":"제주 서귀포시 산록남로 2847-37 (상효동)","link": "https://place.map.kakao.com/8236791", "layer": "서귀포 카페"},"geometry": { "type": "Point", "coordinates": [ 126.584635,33.305958,0.0 ] } },
{ "type": "Feature", "properties": { "Name": "마노르블랑","address":"제주 서귀포시 안덕면 일주서로2100번길 46 1층 (안덕면 덕수리)","link": "https://place.map.kakao.com/27199017", "layer": "서귀포 카페"},"geometry": { "type": "Point", "coordinates": [ 126.294991,33.254819,0.0 ] } },
{ "type": "Feature", "properties": { "Name": "주소명","address":"제주 서귀포시 안덕면 일주서로2100번길 46","link": "https://place.map.kakao.com/N37063849", "layer": "서귀포 카페"},"geometry": { "type": "Point", "coordinates": [ 126.294986,33.254826,0.0 ] } },
{ "type": "Feature", "properties": { "Name": "에캄","address":"제주 서귀포시 안덕면 형제해안로 72 1층 (안덕면 사계리)","link": "https://place.map.kakao.com/108016510", "layer": "서귀포 카페"},"geometry": { "type": "Point", "coordinates": [ 126.299645,33.225600,0.0 ] } },
{ "type": "Feature", "properties": { "Name": "아띠랑스","address":"제주 서귀포시 성산읍 해맞이해안로 2614 (성산읍 시흥리)","link": "https://place.map.kakao.com/113091928", "layer": "서귀포 카페"},"geometry": { "type": "Point", "coordinates": [ 126.909182,33.477462,0.0 ] } },
{ "type": "Feature", "properties": { "Name": "카페더라이트","address":"제주 서귀포시 성산읍 한도로 269 (성산읍 성산리)","link": "https://place.map.kakao.com/680958794", "layer": "서귀포 카페"},"geometry": { "type": "Point", "coordinates": [ 126.935993,33.465635,0.0 ] } },
{ "type": "Feature", "properties": { "Name": "한옥마루카페","address":"제주 서귀포시 성산읍 한도로 269-23 (성산읍 성산리)","link": "https://place.map.kakao.com/2053057594", "layer": "서귀포 카페"},"geometry": { "type": "Point", "coordinates": [ 126.935893,33.467579,0.0 ] } },
{ "type": "Feature", "properties": { "Name": "해비치불턱","address":"제주 서귀포시 표선면 민속해안로 384 (표선면 표선리)","link": "https://place.map.kakao.com/17272985", "layer": "서귀포 카페"},"geometry": { "type": "Point", "coordinates": [ 126.837229,33.312583,0.0 ] } },
{ "type": "Feature", "properties": { "Name": "보말과풍경","address":"제주 서귀포시 대정읍 하모중앙로 17 1층 (대정읍 하모리)","link": "https://place.map.kakao.com/63711827", "layer": "서귀포 카페"},"geometry": { "type": "Point", "coordinates": [ 126.252770,33.226615,0.0 ] } },
{ "type": "Feature", "properties": { "Name": "신토생선구이식당","address":"제주 서귀포시 대정읍 최남단해안로 31 (대정읍 하모리)","link": "https://place.map.kakao.com/1603540340", "layer": "서귀포 카페"},"geometry": { "type": "Point", "coordinates": [ 126.252498,33.217652,0.0 ] } },
{ "type": "Feature", "properties": { "Name": "주소명","address":"제주 서귀포시 남원읍 한남리 산 76-7","link": "https://place.map.kakao.com/J146482588", "layer": "서귀포 카페"},"geometry": { "type": "Point", "coordinates": [ 126.678010,33.328130,0.0 ] } },
{ "type": "Feature", "properties": { "Name": "칡오름","address":"제주 서귀포시 상효동 2308-1","link": "https://place.map.kakao.com/8547569", "layer": "서귀포 카페"},"geometry": { "type": "Point", "coordinates": [ 126.602894,33.283932,0.0 ] } },
{ "type": "Feature", "properties": { "Name": "만덕이네","address":"제주 서귀포시 표선면 서성일로 16 (표선면 성읍리)","link": "https://place.map.kakao.com/9982608", "layer": "서귀포 카페"},"geometry": { "type": "Point", "coordinates": [ 126.801084,33.393341,0.0 ] } },
{ "type": "Feature", "properties": { "Name": "카페루시아 본점","address":"제주 서귀포시 안덕면 난드르로 49-17 (안덕면 창천리)","link": "https://place.map.kakao.com/1666998566", "layer": "서귀포 카페"},"geometry": { "type": "Point", "coordinates": [ 126.363070,33.235210,0.0 ] } },
{ "type": "Feature", "properties": { "Name": "안녕육지사람","address":"제주 제주시 우도면 우도해안길 792 (우도면 연평리)","link": "https://place.map.kakao.com/18742934", "layer": "서귀포 카페"},"geometry": { "type": "Point", "coordinates": [ 126.957204,33.515121,0.0 ] } },
{ "type": "Feature", "properties": { "Name": "이승이오름","address":"제주 서귀포시 남원읍 신례리 산 2-4","link": "https://place.map.kakao.com/25342411", "layer": "서귀포 카페"},"geometry": { "type": "Point", "coordinates": [ 126.622237,33.340152,0.0 ] } },
{ "type": "Feature", "properties": { "Name": "카멜리아힐","address":"제주 서귀포시 안덕면 병악로 166 (안덕면 상창리)","link": "https://place.map.kakao.com/9461977", "layer": "서귀포 카페"},"geometry": { "type": "Point", "coordinates": [ 126.370009,33.289634,0.0 ] } },
{ "type": "Feature", "properties": { "Name": "남국선원","address":"제주 서귀포시 돈내코로 296-127 (상효동)","link": "https://place.map.kakao.com/10191373", "layer": "서귀포 카페"},"geometry": { "type": "Point", "coordinates": [ 126.574639,33.316795,0.0 ] } }
]
}
